{
"type": "FeatureCollection",
"name": "points_nhs_trusts",
"crs": { "type": "name", "properties": { "name": "urn:ogc:def:crs:OGC:1.3:CRS84" } },
"features": [
{ "type": "Feature", "properties": { "nhs_trust_name": "MANCHESTER UNIVERSITY NHS FOUNDATION TRUST", "nhs_trust_code": "R0A", "status": "open" }, "geometry": { "type": "Point", "coordinates": [ 53.462436082681329, -2.227711023436878 ] } },
{ "type": "Feature", "properties": { "nhs_trust_name": "SOUTH TYNESIDE AND SUNDERLAND NHS FOUNDATION TRUST", "nhs_trust_code": "R0B", "status": "open" }, "geometry": { "type": "Point", "coordinates": [ 54.90220615661935, -1.410313353024063 ] } },
{ "type": "Feature", "properties": { "nhs_trust_name": "PROJECT NIGHTINGALE NHS TRUST", "nhs_trust_code": "R0C", "status": "closed" }, "geometry": { "type": "Point", "coordinates": [ 51.508081996609079, 0.026690513604307 ] } },
{ "type": "Feature", "properties": { "nhs_trust_name": "UNIVERSITY HOSPITALS DORSET NHS FOUNDATION TRUST", "nhs_trust_code": "R0D", "status": "open" }, "geometry": { "type": "Point", "coordinates": [ 50.721240945446127, -1.973439834801787 ] } },
{ "type": "Feature", "properties": { "nhs_trust_name": "HEREFORDSHIRE AND WORCESTERSHIRE HEALTH AND CARE NHS TRUST", "nhs_trust_code": "R1A", "status": "open" }, "geometry": { "type": "Point", "coordinates": [ 52.192183807206895, -2.179045491759029 ] } },
{ "type": "Feature", "properties": { "nhs_trust_name": "SOLENT NHS TRUST", "nhs_trust_code": "R1C", "status": "open" }, "geometry": { "type": "Point", "coordinates": [ 50.901687489735544, -1.330859848294764 ] } },
{ "type": "Feature", "properties": { "nhs_trust_name": "SHROPSHIRE COMMUNITY HEALTH NHS TRUST", "nhs_trust_code": "R1D", "status": "open" }, "geometry": { "type": "Point", "coordinates": [ 52.705844254960851, -2.789366195912339 ] } },
{ "type": "Feature", "properties": { "nhs_trust_name": "ISLE OF WIGHT NHS TRUST", "nhs_trust_code": "R1F", "status": "open" }, "geometry": { "type": "Point", "coordinates": [ 50.711919159538702, -1.301137390665846 ] } },
{ "type": "Feature", "properties": { "nhs_trust_name": "BARTS HEALTH NHS TRUST", "nhs_trust_code": "R1H", "status": "open" }, "geometry": { "type": "Point", "coordinates": [ 51.517166828031939, -0.056049749589915 ] } },
{ "type": "Feature", "properties": { "nhs_trust_name": "GLOUCESTERSHIRE CARE SERVICES NHS TRUST", "nhs_trust_code": "R1J", "status": "closed" }, "geometry": { "type": "Point", "coordinates": [ 51.847101841082072, -2.176463255534516 ] } },
{ "type": "Feature", "properties": { "nhs_trust_name": "LONDON NORTH WEST UNIVERSITY HEALTHCARE NHS TRUST", "nhs_trust_code": "R1K", "status": "open" }, "geometry": { "type": "Point", "coordinates": [ 51.57528981577628, -0.321619530198597 ] } },
{ "type": "Feature", "properties": { "nhs_trust_name": "ESSEX PARTNERSHIP UNIVERSITY NHS FOUNDATION TRUST", "nhs_trust_code": "R1L", "status": "open" }, "geometry": { "type": "Point", "coordinates": [ 51.631011324375244, 0.539418985859967 ] } },
{ "type": "Feature", "properties": { "nhs_trust_name": "ROYAL SURREY COUNTY HOSPITAL NHS FOUNDATION TRUST", "nhs_trust_code": "RA2", "status": "open" }, "geometry": { "type": "Point", "coordinates": [ 51.241327661399133, -0.60895678818679 ] } },
{ "type": "Feature", "properties": { "nhs_trust_name": "WESTON AREA HEALTH NHS TRUST", "nhs_trust_code": "RA3", "status": "closed" }, "geometry": { "type": "Point", "coordinates": [ 51.321994141456521, -2.972039765967958 ] } },
{ "type": "Feature", "properties": { "nhs_trust_name": "YEOVIL DISTRICT HOSPITAL NHS FOUNDATION TRUST", "nhs_trust_code": "RA4", "status": "open" }, "geometry": { "type": "Point", "coordinates": [ 50.94470923637622, -2.634508447031457 ] } },
{ "type": "Feature", "properties": { "nhs_trust_name": "UNIVERSITY HOSPITALS BRISTOL AND WESTON NHS FOUNDATION TRUST", "nhs_trust_code": "RA7", "status": "open" }, "geometry": { "type": "Point", "coordinates": [ 51.459136071262904, -2.593288067423428 ] } },
{ "type": "Feature", "properties": { "nhs_trust_name": "TORBAY AND SOUTH DEVON NHS FOUNDATION TRUST", "nhs_trust_code": "RA9", "status": "open" }, "geometry": { "type": "Point", "coordinates": [ 50.4822860811963, -3.553696354997358 ] } },
{ "type": "Feature", "properties": { "nhs_trust_name": "BRADFORD TEACHING HOSPITALS NHS FOUNDATION TRUST", "nhs_trust_code": "RAE", "status": "open" }, "geometry": { "type": "Point", "coordinates": [ 53.806485799034924, -1.796567213297339 ] } },
{ "type": "Feature", "properties": { "nhs_trust_name": "MID AND SOUTH ESSEX NHS FOUNDATION TRUST", "nhs_trust_code": "RAJ", "status": "open" }, "geometry": { "type": "Point", "coordinates": [ 51.554207225108577, 0.687957953156915 ] } },
{ "type": "Feature", "properties": { "nhs_trust_name": "ROYAL FREE LONDON NHS FOUNDATION TRUST", "nhs_trust_code": "RAL", "status": "open" }, "geometry": { "type": "Point", "coordinates": [ 51.553224187791059, -0.165323657935 ] } },
{ "type": "Feature", "properties": { "nhs_trust_name": "ROYAL NATIONAL ORTHOPAEDIC HOSPITAL NHS TRUST", "nhs_trust_code": "RAN", "status": "open" }, "geometry": { "type": "Point", "coordinates": [ 51.632565619531988, -0.310435405324704 ] } },
{ "type": "Feature", "properties": { "nhs_trust_name": "NORTH MIDDLESEX UNIVERSITY HOSPITAL NHS TRUST", "nhs_trust_code": "RAP", "status": "open" }, "geometry": { "type": "Point", "coordinates": [ 51.613094229114367, -0.073749583103222 ] } },
{ "type": "Feature", "properties": { "nhs_trust_name": "THE HILLINGDON HOSPITALS NHS FOUNDATION TRUST", "nhs_trust_code": "RAS", "status": "open" }, "geometry": { "type": "Point", "coordinates": [ 51.525191562208704, -0.461403805997296 ] } },
{ "type": "Feature", "properties": { "nhs_trust_name": "NORTH EAST LONDON NHS FOUNDATION TRUST", "nhs_trust_code": "RAT", "status": "open" }, "geometry": { "type": "Point", "coordinates": [ 51.518576873297391, 0.171133350651679 ] } },
{ "type": "Feature", "properties": { "nhs_trust_name": "KINGSTON HOSPITAL NHS FOUNDATION TRUST", "nhs_trust_code": "RAX", "status": "open" }, "geometry": { "type": "Point", "coordinates": [ 51.414807518690921, -0.282397319202065 ] } },
{ "type": "Feature", "properties": { "nhs_trust_name": "TAUNTON AND SOMERSET NHS FOUNDATION TRUST", "nhs_trust_code": "RBA", "status": "closed" }, "geometry": { "type": "Point", "coordinates": [ 51.011323208413501, -3.119767599662079 ] } },
{ "type": "Feature", "properties": { "nhs_trust_name": "DORSET COUNTY HOSPITAL NHS FOUNDATION TRUST", "nhs_trust_code": "RBD", "status": "open" }, "geometry": { "type": "Point", "coordinates": [ 50.712940424061735, -2.446936251904931 ] } },
{ "type": "Feature", "properties": { "nhs_trust_name": "WALSALL HEALTHCARE NHS TRUST", "nhs_trust_code": "RBK", "status": "open" }, "geometry": { "type": "Point", "coordinates": [ 52.582809534921026, -1.998491650097746 ] } },
{ "type": "Feature", "properties": { "nhs_trust_name": "WIRRAL UNIVERSITY TEACHING HOSPITAL NHS FOUNDATION TRUST", "nhs_trust_code": "RBL", "status": "open" }, "geometry": { "type": "Point", "coordinates": [ 53.369744100868424, -3.095571517130281 ] } },
{ "type": "Feature", "properties": { "nhs_trust_name": "ST HELENS AND KNOWSLEY TEACHING HOSPITALS NHS TRUST", "nhs_trust_code": "RBN", "status": "open" }, "geometry": { "type": "Point", "coordinates": [ 53.420469161336641, -2.784953682069359 ] } },
{ "type": "Feature", "properties": { "nhs_trust_name": "LIVERPOOL HEART AND CHEST HOSPITAL NHS FOUNDATION TRUST", "nhs_trust_code": "RBQ", "status": "open" }, "geometry": { "type": "Point", "coordinates": [ 53.410727223370827, -2.899997322248193 ] } },
{ "type": "Feature", "properties": { "nhs_trust_name": "ALDER HEY CHILDREN'S NHS FOUNDATION TRUST", "nhs_trust_code": "RBS", "status": "open" }, "geometry": { "type": "Point", "coordinates": [ 53.420242274211141, -2.89872261674416 ] } },
{ "type": "Feature", "properties": { "nhs_trust_name": "MID CHESHIRE HOSPITALS NHS FOUNDATION TRUST", "nhs_trust_code": "RBT", "status": "open" }, "geometry": { "type": "Point", "coordinates": [ 53.118917668271976, -2.476346457330603 ] } },
{ "type": "Feature", "properties": { "nhs_trust_name": "THE CHRISTIE NHS FOUNDATION TRUST", "nhs_trust_code": "RBV", "status": "open" }, "geometry": { "type": "Point", "coordinates": [ 53.429526785584621, -2.230047035372807 ] } },
{ "type": "Feature", "properties": { "nhs_trust_name": "NORTHERN DEVON HEALTHCARE NHS TRUST", "nhs_trust_code": "RBZ", "status": "open" }, "geometry": { "type": "Point", "coordinates": [ 51.092168767016609, -4.050431417314607 ] } },
{ "type": "Feature", "properties": { "nhs_trust_name": "BEDFORD HOSPITAL NHS TRUST", "nhs_trust_code": "RC1", "status": "closed" }, "geometry": { "type": "Point", "coordinates": [ 52.128380184179697, -0.472362223046933 ] } },
{ "type": "Feature", "properties": { "nhs_trust_name": "BEDFORDSHIRE HOSPITALS NHS FOUNDATION TRUST", "nhs_trust_code": "RC9", "status": "open" }, "geometry": { "type": "Point", "coordinates": [ 51.893845148047454, -0.474293493119207 ] } },
{ "type": "Feature", "properties": { "nhs_trust_name": "YORK TEACHING HOSPITAL NHS FOUNDATION TRUST", "nhs_trust_code": "RCB", "status": "open" }, "geometry": { "type": "Point", "coordinates": [ 53.970396676156042, -1.083921528167056 ] } },
{ "type": "Feature", "properties": { "nhs_trust_name": "HARROGATE AND DISTRICT NHS FOUNDATION TRUST", "nhs_trust_code": "RCD", "status": "open" }, "geometry": { "type": "Point", "coordinates": [ 53.993772009601642, -1.517774488489411 ] } },
{ "type": "Feature", "properties": { "nhs_trust_name": "AIREDALE NHS FOUNDATION TRUST", "nhs_trust_code": "RCF", "status": "open" }, "geometry": { "type": "Point", "coordinates": [ 53.897612689098445, -1.963413987955767 ] } },
{ "type": "Feature", "properties": { "nhs_trust_name": "SHEFFIELD CHILDREN'S NHS FOUNDATION TRUST", "nhs_trust_code": "RCU", "status": "open" }, "geometry": { "type": "Point", "coordinates": [ 53.380495716101763, -1.490621493824889 ] } },
{ "type": "Feature", "properties": { "nhs_trust_name": "THE QUEEN ELIZABETH HOSPITAL, KING'S LYNN, NHS FOUNDATION TRUST", "nhs_trust_code": "RCX", "status": "open" }, "geometry": { "type": "Point", "coordinates": [ 52.755659949100945, 0.44400357202591 ] } },
{ "type": "Feature", "properties": { "nhs_trust_name": "ROYAL UNITED HOSPITALS BATH NHS FOUNDATION TRUST", "nhs_trust_code": "RD1", "status": "open" }, "geometry": { "type": "Point", "coordinates": [ 51.39223181189427, -2.391736575154785 ] } },
{ "type": "Feature", "properties": { "nhs_trust_name": "POOLE HOSPITAL NHS FOUNDATION TRUST", "nhs_trust_code": "RD3", "status": "closed" }, "geometry": { "type": "Point", "coordinates": [ 50.721240945446127, -1.973439834801787 ] } },
{ "type": "Feature", "properties": { "nhs_trust_name": "MILTON KEYNES UNIVERSITY HOSPITAL NHS FOUNDATION TRUST", "nhs_trust_code": "RD8", "status": "open" }, "geometry": { "type": "Point", "coordinates": [ 52.026620411151548, -0.736832610769476 ] } },
{ "type": "Feature", "properties": { "nhs_trust_name": "BASILDON AND THURROCK UNIVERSITY HOSPITALS NHS FOUNDATION TRUST", "nhs_trust_code": "RDD", "status": "closed" }, "geometry": { "type": "Point", "coordinates": [ 51.558085740566931, 0.451606400457734 ] } },
{ "type": "Feature", "properties": { "nhs_trust_name": "EAST SUFFOLK AND NORTH ESSEX NHS FOUNDATION TRUST", "nhs_trust_code": "RDE", "status": "open" }, "geometry": { "type": "Point", "coordinates": [ 51.909972484128801, 0.898879985328942 ] } },
{ "type": "Feature", "properties": { "nhs_trust_name": "SUSSEX COMMUNITY NHS FOUNDATION TRUST", "nhs_trust_code": "RDR", "status": "open" }, "geometry": { "type": "Point", "coordinates": [ 50.830459745397903, -0.115476795482283 ] } },
{ "type": "Feature", "properties": { "nhs_trust_name": "FRIMLEY HEALTH NHS FOUNDATION TRUST", "nhs_trust_code": "RDU", "status": "open" }, "geometry": { "type": "Point", "coordinates": [ 51.319747324766475, -0.741624887564416 ] } },
{ "type": "Feature", "properties": { "nhs_trust_name": "DORSET HEALTHCARE UNIVERSITY NHS FOUNDATION TRUST", "nhs_trust_code": "RDY", "status": "open" }, "geometry": { "type": "Point", "coordinates": [ 50.74007259628722, -1.978038410080448 ] } },
{ "type": "Feature", "properties": { "nhs_trust_name": "THE ROYAL BOURNEMOUTH AND CHRISTCHURCH HOSPITALS NHS FOUNDATION TRUST", "nhs_trust_code": "RDZ", "status": "closed" }, "geometry": { "type": "Point", "coordinates": [ 50.747956173974814, -1.821297003793382 ] } },
{ "type": "Feature", "properties": { "nhs_trust_name": "ROYAL CORNWALL HOSPITALS NHS TRUST", "nhs_trust_code": "REF", "status": "open" }, "geometry": { "type": "Point", "coordinates": [ 50.26636475, -5.09254829431462 ] } },
{ "type": "Feature", "properties": { "nhs_trust_name": "LIVERPOOL UNIVERSITY HOSPITALS NHS FOUNDATION TRUST", "nhs_trust_code": "REM", "status": "open" }, "geometry": { "type": "Point", "coordinates": [ 53.41063422888304, -2.964748536370179 ] } },
{ "type": "Feature", "properties": { "nhs_trust_name": "THE CLATTERBRIDGE CANCER CENTRE NHS FOUNDATION TRUST", "nhs_trust_code": "REN", "status": "open" }, "geometry": { "type": "Point", "coordinates": [ 53.331609540860036, -3.025315473122157 ] } },
{ "type": "Feature", "properties": { "nhs_trust_name": "LIVERPOOL WOMEN'S NHS FOUNDATION TRUST", "nhs_trust_code": "REP", "status": "open" }, "geometry": { "type": "Point", "coordinates": [ 53.3984609705171, -2.960076961002361 ] } },
{ "type": "Feature", "properties": { "nhs_trust_name": "THE WALTON CENTRE NHS FOUNDATION TRUST", "nhs_trust_code": "RET", "status": "open" }, "geometry": { "type": "Point", "coordinates": [ 53.466395319710074, -2.931000016526535 ] } },
{ "type": "Feature", "properties": { "nhs_trust_name": "BARKING, HAVERING AND REDBRIDGE UNIVERSITY HOSPITALS NHS TRUST", "nhs_trust_code": "RF4", "status": "open" }, "geometry": { "type": "Point", "coordinates": [ 51.568646558994075, 0.179030599053504 ] } },
{ "type": "Feature", "properties": { "nhs_trust_name": "BARNSLEY HOSPITAL NHS FOUNDATION TRUST", "nhs_trust_code": "RFF", "status": "open" }, "geometry": { "type": "Point", "coordinates": [ 53.559131552026983, -1.499492986341705 ] } },
{ "type": "Feature", "properties": { "nhs_trust_name": "THE ROTHERHAM NHS FOUNDATION TRUST", "nhs_trust_code": "RFR", "status": "open" }, "geometry": { "type": "Point", "coordinates": [ 53.413972221425297, -1.342880448819615 ] } },
{ "type": "Feature", "properties": { "nhs_trust_name": "CHESTERFIELD ROYAL HOSPITAL NHS FOUNDATION TRUST", "nhs_trust_code": "RFS", "status": "open" }, "geometry": { "type": "Point", "coordinates": [ 53.236213625226938, -1.400051394991294 ] } },
{ "type": "Feature", "properties": { "nhs_trust_name": "LEEDS AND YORK PARTNERSHIP NHS FOUNDATION TRUST", "nhs_trust_code": "RGD", "status": "open" }, "geometry": { "type": "Point", "coordinates": [ 53.796491647227981, -1.426558427286075 ] } },
{ "type": "Feature", "properties": { "nhs_trust_name": "ROYAL PAPWORTH HOSPITAL NHS FOUNDATION TRUST", "nhs_trust_code": "RGM", "status": "open" }, "geometry": { "type": "Point", "coordinates": [ 52.173447288211563, 0.135833642848054 ] } },
{ "type": "Feature", "properties": { "nhs_trust_name": "NORTH WEST ANGLIA NHS FOUNDATION TRUST", "nhs_trust_code": "RGN", "status": "open" }, "geometry": { "type": "Point", "coordinates": [ 52.584677934559267, -0.278935694185971 ] } },
{ "type": "Feature", "properties": { "nhs_trust_name": "JAMES PAGET UNIVERSITY HOSPITALS NHS FOUNDATION TRUST", "nhs_trust_code": "RGP", "status": "open" }, "geometry": { "type": "Point", "coordinates": [ 52.561640575851385, 1.71768688042089 ] } },
{ "type": "Feature", "properties": { "nhs_trust_name": "WEST SUFFOLK NHS FOUNDATION TRUST", "nhs_trust_code": "RGR", "status": "open" }, "geometry": { "type": "Point", "coordinates": [ 52.231306488498483, 0.708368555017955 ] } },
{ "type": "Feature", "properties": { "nhs_trust_name": "CAMBRIDGE UNIVERSITY HOSPITALS NHS FOUNDATION TRUST", "nhs_trust_code": "RGT", "status": "open" }, "geometry": { "type": "Point", "coordinates": [ 52.173740688748659, 0.139114437022424 ] } },
{ "type": "Feature", "properties": { "nhs_trust_name": "SOMERSET NHS FOUNDATION TRUST", "nhs_trust_code": "RH5", "status": "open" }, "geometry": { "type": "Point", "coordinates": [ 51.011323208413501, -3.119767599662079 ] } },
{ "type": "Feature", "properties": { "nhs_trust_name": "ROYAL DEVON AND EXETER NHS FOUNDATION TRUST", "nhs_trust_code": "RH8", "status": "open" }, "geometry": { "type": "Point", "coordinates": [ 50.717551599387917, -3.508402418042163 ] } },
{ "type": "Feature", "properties": { "nhs_trust_name": "NOTTINGHAMSHIRE HEALTHCARE NHS FOUNDATION TRUST", "nhs_trust_code": "RHA", "status": "open" }, "geometry": { "type": "Point", "coordinates": [ 52.979496641802314, -1.127128638335934 ] } },
{ "type": "Feature", "properties": { "nhs_trust_name": "UNIVERSITY HOSPITAL SOUTHAMPTON NHS FOUNDATION TRUST", "nhs_trust_code": "RHM", "status": "open" }, "geometry": { "type": "Point", "coordinates": [ 50.932880563015551, -1.434216418252486 ] } },
{ "type": "Feature", "properties": { "nhs_trust_name": "SHEFFIELD TEACHING HOSPITALS NHS FOUNDATION TRUST", "nhs_trust_code": "RHQ", "status": "open" }, "geometry": { "type": "Point", "coordinates": [ 53.410245227096674, -1.456891117579361 ] } },
{ "type": "Feature", "properties": { "nhs_trust_name": "PORTSMOUTH HOSPITALS UNIVERSITY NATIONAL HEALTH SERVICE TRUST", "nhs_trust_code": "RHU", "status": "open" }, "geometry": { "type": "Point", "coordinates": [ 50.849503952040983, -1.071307679750728 ] } },
{ "type": "Feature", "properties": { "nhs_trust_name": "ROYAL BERKSHIRE NHS FOUNDATION TRUST", "nhs_trust_code": "RHW", "status": "open" }, "geometry": { "type": "Point", "coordinates": [ 51.450082301636627, -0.957911159166367 ] } },
{ "type": "Feature", "properties": { "nhs_trust_name": "GUY'S AND ST THOMAS' NHS FOUNDATION TRUST", "nhs_trust_code": "RJ1", "status": "open" }, "geometry": { "type": "Point", "coordinates": [ 51.498601800323613, -0.119285124652825 ] } },
{ "type": "Feature", "properties": { "nhs_trust_name": "LEWISHAM AND GREENWICH NHS TRUST", "nhs_trust_code": "RJ2", "status": "open" }, "geometry": { "type": "Point", "coordinates": [ 51.454329505232813, -0.017050827670676 ] } },
{ "type": "Feature", "properties": { "nhs_trust_name": "CROYDON HEALTH SERVICES NHS TRUST", "nhs_trust_code": "RJ6", "status": "open" }, "geometry": { "type": "Point", "coordinates": [ 51.389947356134961, -0.110332391960861 ] } },
{ "type": "Feature", "properties": { "nhs_trust_name": "ST GEORGE'S UNIVERSITY HOSPITALS NHS FOUNDATION TRUST", "nhs_trust_code": "RJ7", "status": "open" }, "geometry": { "type": "Point", "coordinates": [ 51.426541844422125, -0.174321836898575 ] } },
{ "type": "Feature", "properties": { "nhs_trust_name": "CORNWALL PARTNERSHIP NHS FOUNDATION TRUST", "nhs_trust_code": "RJ8", "status": "open" }, "geometry": { "type": "Point", "coordinates": [ 50.471889618347802, -4.741628437109168 ] } },
{ "type": "Feature", "properties": { "nhs_trust_name": "SOUTH WARWICKSHIRE NHS FOUNDATION TRUST", "nhs_trust_code": "RJC", "status": "open" }, "geometry": { "type": "Point", "coordinates": [ 52.289886, -1.5847949 ] } },
{ "type": "Feature", "properties": { "nhs_trust_name": "MID STAFFORDSHIRE NHS FOUNDATION TRUST", "nhs_trust_code": "RJD", "status": "closed" }, "geometry": { "type": "Point", "coordinates": [ 52.811401483426891, -2.096863140741654 ] } },
{ "type": "Feature", "properties": { "nhs_trust_name": "UNIVERSITY HOSPITALS OF NORTH MIDLANDS NHS TRUST", "nhs_trust_code": "RJE", "status": "open" }, "geometry": { "type": "Point", "coordinates": [ 53.002096146791871, -2.213121872698276 ] } },
{ "type": "Feature", "properties": { "nhs_trust_name": "NORTHERN LINCOLNSHIRE AND GOOLE NHS FOUNDATION TRUST", "nhs_trust_code": "RJL", "status": "open" }, "geometry": { "type": "Point", "coordinates": [ 53.54485854473262, -0.096288917501324 ] } },
{ "type": "Feature", "properties": { "nhs_trust_name": "EAST CHESHIRE NHS TRUST", "nhs_trust_code": "RJN", "status": "open" }, "geometry": { "type": "Point", "coordinates": [ 53.262538757038016, -2.140521875746726 ] } },
{ "type": "Feature", "properties": { "nhs_trust_name": "COUNTESS OF CHESTER HOSPITAL NHS FOUNDATION TRUST", "nhs_trust_code": "RJR", "status": "open" }, "geometry": { "type": "Point", "coordinates": [ 53.209597921109633, -2.899563403116512 ] } },
{ "type": "Feature", "properties": { "nhs_trust_name": "KING'S COLLEGE HOSPITAL NHS FOUNDATION TRUST", "nhs_trust_code": "RJZ", "status": "open" }, "geometry": { "type": "Point", "coordinates": [ 51.468889983789758, -0.093779978338438 ] } },
{ "type": "Feature", "properties": { "nhs_trust_name": "SHERWOOD FOREST HOSPITALS NHS FOUNDATION TRUST", "nhs_trust_code": "RK5", "status": "open" }, "geometry": { "type": "Point", "coordinates": [ 53.135701062500921, -1.234414145257885 ] } },
{ "type": "Feature", "properties": { "nhs_trust_name": "UNIVERSITY HOSPITALS PLYMOUTH NHS TRUST", "nhs_trust_code": "RK9", "status": "open" }, "geometry": { "type": "Point", "coordinates": [ 50.415919154922634, -4.114594537199807 ] } },
{ "type": "Feature", "properties": { "nhs_trust_name": "UNIVERSITY HOSPITALS COVENTRY AND WARWICKSHIRE NHS TRUST", "nhs_trust_code": "RKB", "status": "open" }, "geometry": { "type": "Point", "coordinates": [ 52.421210788036959, -1.438403213979446 ] } },
{ "type": "Feature", "properties": { "nhs_trust_name": "WHITTINGTON HEALTH NHS TRUST", "nhs_trust_code": "RKE", "status": "open" }, "geometry": { "type": "Point", "coordinates": [ 51.566610419945093, -0.139517587519552 ] } },
{ "type": "Feature", "properties": { "nhs_trust_name": "WEST LONDON NHS TRUST", "nhs_trust_code": "RKL", "status": "open" }, "geometry": { "type": "Point", "coordinates": [ 51.506596311673249, -0.363183744079662 ] } },
{ "type": "Feature", "properties": { "nhs_trust_name": "THE ROBERT JONES AND AGNES HUNT ORTHOPAEDIC HOSPITAL NHS FOUNDATION TRUST", "nhs_trust_code": "RL1", "status": "open" }, "geometry": { "type": "Point", "coordinates": [ 52.884211949515631, -3.032685299501234 ] } },
{ "type": "Feature", "properties": { "nhs_trust_name": "THE ROYAL WOLVERHAMPTON NHS TRUST", "nhs_trust_code": "RL4", "status": "open" }, "geometry": { "type": "Point", "coordinates": [ 52.59972245318334, -2.095555065263746 ] } },
{ "type": "Feature", "properties": { "nhs_trust_name": "WYE VALLEY NHS TRUST", "nhs_trust_code": "RLQ", "status": "open" }, "geometry": { "type": "Point", "coordinates": [ 52.057012815467054, -2.705708867936857 ] } },
{ "type": "Feature", "properties": { "nhs_trust_name": "GEORGE ELIOT HOSPITAL NHS TRUST", "nhs_trust_code": "RLT", "status": "open" }, "geometry": { "type": "Point", "coordinates": [ 52.512580377280308, -1.47843918373381 ] } },
{ "type": "Feature", "properties": { "nhs_trust_name": "NORTH STAFFORDSHIRE COMBINED HEALTHCARE NHS TRUST", "nhs_trust_code": "RLY", "status": "open" }, "geometry": { "type": "Point", "coordinates": [ 52.968373439033705, -2.167808176952964 ] } },
{ "type": "Feature", "properties": { "nhs_trust_name": "NORFOLK AND NORWICH UNIVERSITY HOSPITALS NHS FOUNDATION TRUST", "nhs_trust_code": "RM1", "status": "open" }, "geometry": { "type": "Point", "coordinates": [ 52.617201795496833, 1.220593381284634 ] } },
{ "type": "Feature", "properties": { "nhs_trust_name": "SALFORD ROYAL NHS FOUNDATION TRUST", "nhs_trust_code": "RM3", "status": "open" }, "geometry": { "type": "Point", "coordinates": [ 53.487342713864038, -2.323902112550346 ] } },
{ "type": "Feature", "properties": { "nhs_trust_name": "BOLTON NHS FOUNDATION TRUST", "nhs_trust_code": "RMC", "status": "open" }, "geometry": { "type": "Point", "coordinates": [ 53.55244586128255, -2.429711359302853 ] } },
{ "type": "Feature", "properties": { "nhs_trust_name": "TAMESIDE AND GLOSSOP INTEGRATED CARE NHS FOUNDATION TRUST", "nhs_trust_code": "RMP", "status": "open" }, "geometry": { "type": "Point", "coordinates": [ 53.491529882359245, -2.071433376896873 ] } },
{ "type": "Feature", "properties": { "nhs_trust_name": "NORFOLK AND SUFFOLK NHS FOUNDATION TRUST", "nhs_trust_code": "RMY", "status": "open" }, "geometry": { "type": "Point", "coordinates": [ 52.659761146816358, 1.250814151873197 ] } },
{ "type": "Feature", "properties": { "nhs_trust_name": "GREAT WESTERN HOSPITALS NHS FOUNDATION TRUST", "nhs_trust_code": "RN3", "status": "open" }, "geometry": { "type": "Point", "coordinates": [ 51.538828263366277, -1.726667203543904 ] } },
{ "type": "Feature", "properties": { "nhs_trust_name": "HAMPSHIRE HOSPITALS NHS FOUNDATION TRUST", "nhs_trust_code": "RN5", "status": "open" }, "geometry": { "type": "Point", "coordinates": [ 51.280632882158095, -1.109918004031156 ] } },
{ "type": "Feature", "properties": { "nhs_trust_name": "DARTFORD AND GRAVESHAM NHS TRUST", "nhs_trust_code": "RN7", "status": "open" }, "geometry": { "type": "Point", "coordinates": [ 51.434859850786708, 0.258652611827532 ] } },
{ "type": "Feature", "properties": { "nhs_trust_name": "THE DUDLEY GROUP NHS FOUNDATION TRUST", "nhs_trust_code": "RNA", "status": "open" }, "geometry": { "type": "Point", "coordinates": [ 52.502505795308302, -2.121231633804807 ] } },
{ "type": "Feature", "properties": { "nhs_trust_name": "TAVISTOCK AND PORTMAN NHS FOUNDATION TRUST", "nhs_trust_code": "RNK", "status": "open" }, "geometry": { "type": "Point", "coordinates": [ 51.546898459679596, -0.175443203563469 ] } },
{ "type": "Feature", "properties": { "nhs_trust_name": "NORTH CUMBRIA UNIVERSITY HOSPITALS NHS TRUST", "nhs_trust_code": "RNL", "status": "closed" }, "geometry": { "type": "Point", "coordinates": [ 54.896798767684366, -2.958393482495249 ] } },
{ "type": "Feature", "properties": { "nhs_trust_name": "NORTH CUMBRIA INTEGRATED CARE NHS FOUNDATION TRUST", "nhs_trust_code": "RNN", "status": "open" }, "geometry": { "type": "Point", "coordinates": [ 54.667295432302602, -2.753696569362531 ] } },
{ "type": "Feature", "properties": { "nhs_trust_name": "KETTERING GENERAL HOSPITAL NHS FOUNDATION TRUST", "nhs_trust_code": "RNQ", "status": "open" }, "geometry": { "type": "Point", "coordinates": [ 52.402544345774416, -0.743024490220431 ] } },
{ "type": "Feature", "properties": { "nhs_trust_name": "NORTHAMPTON GENERAL HOSPITAL NHS TRUST", "nhs_trust_code": "RNS", "status": "open" }, "geometry": { "type": "Point", "coordinates": [ 52.235916012756832, -0.884104163680837 ] } },
{ "type": "Feature", "properties": { "nhs_trust_name": "OXFORD HEALTH NHS FOUNDATION TRUST", "nhs_trust_code": "RNU", "status": "open" }, "geometry": { "type": "Point", "coordinates": [ 51.750840915064479, -1.222319608218546 ] } },
{ "type": "Feature", "properties": { "nhs_trust_name": "SALISBURY NHS FOUNDATION TRUST", "nhs_trust_code": "RNZ", "status": "open" }, "geometry": { "type": "Point", "coordinates": [ 51.043946282130683, -1.78982257536458 ] } },
{ "type": "Feature", "properties": { "nhs_trust_name": "NORTHAMPTONSHIRE HEALTHCARE NHS FOUNDATION TRUST", "nhs_trust_code": "RP1", "status": "open" }, "geometry": { "type": "Point", "coordinates": [ 52.39387174444073, -0.720776314328846 ] } },
{ "type": "Feature", "properties": { "nhs_trust_name": "GREAT ORMOND STREET HOSPITAL FOR CHILDREN NHS FOUNDATION TRUST", "nhs_trust_code": "RP4", "status": "open" }, "geometry": { "type": "Point", "coordinates": [ 51.522092623749856, -0.121936767542964 ] } },
{ "type": "Feature", "properties": { "nhs_trust_name": "DONCASTER AND BASSETLAW TEACHING HOSPITALS NHS FOUNDATION TRUST", "nhs_trust_code": "RP5", "status": "open" }, "geometry": { "type": "Point", "coordinates": [ 53.53078445177772, -1.108938970554301 ] } },
{ "type": "Feature", "properties": { "nhs_trust_name": "MOORFIELDS EYE HOSPITAL NHS FOUNDATION TRUST", "nhs_trust_code": "RP6", "status": "open" }, "geometry": { "type": "Point", "coordinates": [ 51.527272281418625, -0.089876569154531 ] } },
{ "type": "Feature", "properties": { "nhs_trust_name": "LINCOLNSHIRE PARTNERSHIP NHS FOUNDATION TRUST", "nhs_trust_code": "RP7", "status": "open" }, "geometry": { "type": "Point", "coordinates": [ 53.244028869551919, -0.556905255531826 ] } },
{ "type": "Feature", "properties": { "nhs_trust_name": "MEDWAY NHS FOUNDATION TRUST", "nhs_trust_code": "RPA", "status": "open" }, "geometry": { "type": "Point", "coordinates": [ 51.379548012664074, 0.541458692776458 ] } },
{ "type": "Feature", "properties": { "nhs_trust_name": "QUEEN VICTORIA HOSPITAL NHS FOUNDATION TRUST", "nhs_trust_code": "RPC", "status": "open" }, "geometry": { "type": "Point", "coordinates": [ 51.135560801185896, -0.001746838529182 ] } },
{ "type": "Feature", "properties": { "nhs_trust_name": "OXLEAS NHS FOUNDATION TRUST", "nhs_trust_code": "RPG", "status": "open" }, "geometry": { "type": "Point", "coordinates": [ 51.434794695980031, 0.174740508996575 ] } },
{ "type": "Feature", "properties": { "nhs_trust_name": "THE ROYAL MARSDEN NHS FOUNDATION TRUST", "nhs_trust_code": "RPY", "status": "open" }, "geometry": { "type": "Point", "coordinates": [ 51.490560850603892, -0.172565182019968 ] } },
{ "type": "Feature", "properties": { "nhs_trust_name": "BIRMINGHAM WOMEN'S AND CHILDREN'S NHS FOUNDATION TRUST", "nhs_trust_code": "RQ3", "status": "open" }, "geometry": { "type": "Point", "coordinates": [ 52.484936847119087, -1.894223887198528 ] } },
{ "type": "Feature", "properties": { "nhs_trust_name": "ROYAL LIVERPOOL AND BROADGREEN UNIVERSITY HOSPITALS NHS TRUST", "nhs_trust_code": "RQ6", "status": "closed" }, "geometry": { "type": "Point", "coordinates": [ 53.41063422888304, -2.964748536370179 ] } },
{ "type": "Feature", "properties": { "nhs_trust_name": "MID ESSEX HOSPITAL SERVICES NHS TRUST", "nhs_trust_code": "RQ8", "status": "closed" }, "geometry": { "type": "Point", "coordinates": [ 51.775072748435818, 0.464073215385178 ] } },
{ "type": "Feature", "properties": { "nhs_trust_name": "VELINDRE NHS TRUST", "nhs_trust_code": "RQF", "status": "open" }, "geometry": { "type": "Point", "coordinates": [ 51.566307458975537, -3.278361046010755 ] } },
{ "type": "Feature", "properties": { "nhs_trust_name": "CHELSEA AND WESTMINSTER HOSPITAL NHS FOUNDATION TRUST", "nhs_trust_code": "RQM", "status": "open" }, "geometry": { "type": "Point", "coordinates": [ 51.48426935, -0.1817329 ] } },
{ "type": "Feature", "properties": { "nhs_trust_name": "THE PRINCESS ALEXANDRA HOSPITAL NHS TRUST", "nhs_trust_code": "RQW", "status": "open" }, "geometry": { "type": "Point", "coordinates": [ 51.771372871170307, 0.08612277961737 ] } },
{ "type": "Feature", "properties": { "nhs_trust_name": "HOMERTON UNIVERSITY HOSPITAL NHS FOUNDATION TRUST", "nhs_trust_code": "RQX", "status": "open" }, "geometry": { "type": "Point", "coordinates": [ 51.550051780639357, -0.04598392906802 ] } },
{ "type": "Feature", "properties": { "nhs_trust_name": "SOUTH WEST LONDON AND ST GEORGE'S MENTAL HEALTH NHS TRUST", "nhs_trust_code": "RQY", "status": "open" }, "geometry": { "type": "Point", "coordinates": [ 51.436790296052592, -0.17175919730352 ] } },
{ "type": "Feature", "properties": { "nhs_trust_name": "GATESHEAD HEALTH NHS FOUNDATION TRUST", "nhs_trust_code": "RR7", "status": "open" }, "geometry": { "type": "Point", "coordinates": [ 54.9368568, -1.5820742 ] } },
{ "type": "Feature", "properties": { "nhs_trust_name": "LEEDS TEACHING HOSPITALS NHS TRUST", "nhs_trust_code": "RR8", "status": "open" }, "geometry": { "type": "Point", "coordinates": [ 53.8069351, -1.521480325 ] } },
{ "type": "Feature", "properties": { "nhs_trust_name": "MIDLANDS PARTNERSHIP NHS FOUNDATION TRUST", "nhs_trust_code": "RRE", "status": "open" }, "geometry": { "type": "Point", "coordinates": [ 52.810589195039995, -2.109088154060749 ] } },
{ "type": "Feature", "properties": { "nhs_trust_name": "WRIGHTINGTON, WIGAN AND LEIGH NHS FOUNDATION TRUST", "nhs_trust_code": "RRF", "status": "open" }, "geometry": { "type": "Point", "coordinates": [ 53.557739922192667, -2.629091158803124 ] } },
{ "type": "Feature", "properties": { "nhs_trust_name": "THE ROYAL ORTHOPAEDIC HOSPITAL NHS FOUNDATION TRUST", "nhs_trust_code": "RRJ", "status": "open" }, "geometry": { "type": "Point", "coordinates": [ 52.421133857748089, -1.960755670730223 ] } },
{ "type": "Feature", "properties": { "nhs_trust_name": "UNIVERSITY HOSPITALS BIRMINGHAM NHS FOUNDATION TRUST", "nhs_trust_code": "RRK", "status": "open" }, "geometry": { "type": "Point", "coordinates": [ 52.4532961, -1.9384003 ] } },
{ "type": "Feature", "properties": { "nhs_trust_name": "BARNET, ENFIELD AND HARINGEY MENTAL HEALTH NHS TRUST", "nhs_trust_code": "RRP", "status": "open" }, "geometry": { "type": "Point", "coordinates": [ 51.580267734125144, -0.089970807015833 ] } },
{ "type": "Feature", "properties": { "nhs_trust_name": "LONDON AMBULANCE SERVICE NHS TRUST", "nhs_trust_code": "RRU", "status": "open" }, "geometry": { "type": "Point", "coordinates": [ 51.500173765801605, -0.109030820307499 ] } },
{ "type": "Feature", "properties": { "nhs_trust_name": "UNIVERSITY COLLEGE LONDON HOSPITALS NHS FOUNDATION TRUST", "nhs_trust_code": "RRV", "status": "open" }, "geometry": { "type": "Point", "coordinates": [ 51.525735004262181, -0.137409498554501 ] } },
{ "type": "Feature", "properties": { "nhs_trust_name": "CAMBRIDGESHIRE AND PETERBOROUGH NHS FOUNDATION TRUST", "nhs_trust_code": "RT1", "status": "open" }, "geometry": { "type": "Point", "coordinates": [ 52.184855444616787, 0.188238969789559 ] } },
{ "type": "Feature", "properties": { "nhs_trust_name": "PENNINE CARE NHS FOUNDATION TRUST", "nhs_trust_code": "RT2", "status": "open" }, "geometry": { "type": "Point", "coordinates": [ 53.485810687306547, -2.09998155608247 ] } },
{ "type": "Feature", "properties": { "nhs_trust_name": "ROYAL BROMPTON & HAREFIELD NHS FOUNDATION TRUST", "nhs_trust_code": "RT3", "status": "closed" }, "geometry": { "type": "Point", "coordinates": [ 51.489742846432648, -0.170854938514993 ] } },
{ "type": "Feature", "properties": { "nhs_trust_name": "WELSH AMBULANCE SERVICES NHS TRUST", "nhs_trust_code": "RT4", "status": "open" }, "geometry": { "type": "Point", "coordinates": [ 53.25194202668628, -3.478326032472258 ] } },
{ "type": "Feature", "properties": { "nhs_trust_name": "LEICESTERSHIRE PARTNERSHIP NHS TRUST", "nhs_trust_code": "RT5", "status": "open" }, "geometry": { "type": "Point", "coordinates": [ 52.6765037157911, -1.103017990030704 ] } },
{ "type": "Feature", "properties": { "nhs_trust_name": "THE NEWCASTLE UPON TYNE HOSPITALS NHS FOUNDATION TRUST", "nhs_trust_code": "RTD", "status": "open" }, "geometry": { "type": "Point", "coordinates": [ 55.002667014760711, -1.593325936373823 ] } },
{ "type": "Feature", "properties": { "nhs_trust_name": "GLOUCESTERSHIRE HOSPITALS NHS FOUNDATION TRUST", "nhs_trust_code": "RTE", "status": "open" }, "geometry": { "type": "Point", "coordinates": [ 51.89214865891946, -2.071957207011768 ] } },
{ "type": "Feature", "properties": { "nhs_trust_name": "NORTHUMBRIA HEALTHCARE NHS FOUNDATION TRUST", "nhs_trust_code": "RTF", "status": "open" }, "geometry": { "type": "Point", "coordinates": [ 55.026635932561852, -1.465137905070079 ] } },
{ "type": "Feature", "properties": { "nhs_trust_name": "UNIVERSITY HOSPITALS OF DERBY AND BURTON NHS FOUNDATION TRUST", "nhs_trust_code": "RTG", "status": "open" }, "geometry": { "type": "Point", "coordinates": [ 52.910764174036984, -1.514029586560305 ] } },
{ "type": "Feature", "properties": { "nhs_trust_name": "OXFORD UNIVERSITY HOSPITALS NHS FOUNDATION TRUST", "nhs_trust_code": "RTH", "status": "open" }, "geometry": { "type": "Point", "coordinates": [ 51.764934488561423, -1.220447184271405 ] } },
{ "type": "Feature", "properties": { "nhs_trust_name": "ASHFORD AND ST PETER'S HOSPITALS NHS FOUNDATION TRUST", "nhs_trust_code": "RTK", "status": "open" }, "geometry": { "type": "Point", "coordinates": [ 51.3766453, -0.5262388 ] } },
{ "type": "Feature", "properties": { "nhs_trust_name": "SURREY AND SUSSEX HEALTHCARE NHS TRUST", "nhs_trust_code": "RTP", "status": "open" }, "geometry": { "type": "Point", "coordinates": [ 51.219193978597424, -0.162009339677706 ] } },
{ "type": "Feature", "properties": { "nhs_trust_name": "GLOUCESTERSHIRE HEALTH AND CARE NHS FOUNDATION TRUST", "nhs_trust_code": "RTQ", "status": "open" }, "geometry": { "type": "Point", "coordinates": [ 51.847101841082072, -2.176463255534516 ] } },
{ "type": "Feature", "properties": { "nhs_trust_name": "SOUTH TEES HOSPITALS NHS FOUNDATION TRUST", "nhs_trust_code": "RTR", "status": "open" }, "geometry": { "type": "Point", "coordinates": [ 54.551755056434004, -1.214805403168637 ] } },
{ "type": "Feature", "properties": { "nhs_trust_name": "NORTH WEST BOROUGHS HEALTHCARE NHS FOUNDATION TRUST", "nhs_trust_code": "RTV", "status": "open" }, "geometry": { "type": "Point", "coordinates": [ 53.429516126893915, -2.606862391784016 ] } },
{ "type": "Feature", "properties": { "nhs_trust_name": "UNIVERSITY HOSPITALS OF MORECAMBE BAY NHS FOUNDATION TRUST", "nhs_trust_code": "RTX", "status": "open" }, "geometry": { "type": "Point", "coordinates": [ 54.306653268934824, -2.732491818671551 ] } },
{ "type": "Feature", "properties": { "nhs_trust_name": "CENTRAL AND NORTH WEST LONDON NHS FOUNDATION TRUST", "nhs_trust_code": "RV3", "status": "open" }, "geometry": { "type": "Point", "coordinates": [ 51.524344655019391, -0.142165701019095 ] } },
{ "type": "Feature", "properties": { "nhs_trust_name": "SOUTH LONDON AND MAUDSLEY NHS FOUNDATION TRUST", "nhs_trust_code": "RV5", "status": "open" }, "geometry": { "type": "Point", "coordinates": [ 51.381850965264491, -0.031415153700714 ] } },
{ "type": "Feature", "properties": { "nhs_trust_name": "HUMBER TEACHING NHS FOUNDATION TRUST", "nhs_trust_code": "RV9", "status": "open" }, "geometry": { "type": "Point", "coordinates": [ 53.771943719506609, -0.444703141410262 ] } },
{ "type": "Feature", "properties": { "nhs_trust_name": "NORTH BRISTOL NHS TRUST", "nhs_trust_code": "RVJ", "status": "open" }, "geometry": { "type": "Point", "coordinates": [ 51.496592934207207, -2.592266020244783 ] } },
{ "type": "Feature", "properties": { "nhs_trust_name": "AVON AND WILTSHIRE MENTAL HEALTH PARTNERSHIP NHS TRUST", "nhs_trust_code": "RVN", "status": "open" }, "geometry": { "type": "Point", "coordinates": [ 51.388604412898331, -2.392312659388968 ] } },
{ "type": "Feature", "properties": { "nhs_trust_name": "EPSOM AND ST HELIER UNIVERSITY HOSPITALS NHS TRUST", "nhs_trust_code": "RVR", "status": "open" }, "geometry": { "type": "Point", "coordinates": [ 51.380456433355029, -0.185042936262254 ] } },
{ "type": "Feature", "properties": { "nhs_trust_name": "EAST KENT HOSPITALS UNIVERSITY NHS FOUNDATION TRUST", "nhs_trust_code": "RVV", "status": "open" }, "geometry": { "type": "Point", "coordinates": [ 51.266435053828502, 1.087920382794701 ] } },
{ "type": "Feature", "properties": { "nhs_trust_name": "NORTH TEES AND HARTLEPOOL NHS FOUNDATION TRUST", "nhs_trust_code": "RVW", "status": "open" }, "geometry": { "type": "Point", "coordinates": [ 54.702397744155505, -1.227836558656809 ] } },
{ "type": "Feature", "properties": { "nhs_trust_name": "SOUTHPORT AND ORMSKIRK HOSPITAL NHS TRUST", "nhs_trust_code": "RVY", "status": "open" }, "geometry": { "type": "Point", "coordinates": [ 53.633553693555619, -2.978822202961784 ] } },
{ "type": "Feature", "properties": { "nhs_trust_name": "SOUTHERN HEALTH NHS FOUNDATION TRUST", "nhs_trust_code": "RW1", "status": "open" }, "geometry": { "type": "Point", "coordinates": [ 50.929944590826636, -1.527985228135215 ] } },
{ "type": "Feature", "properties": { "nhs_trust_name": "MERSEY CARE NHS FOUNDATION TRUST", "nhs_trust_code": "RW4", "status": "open" }, "geometry": { "type": "Point", "coordinates": [ 53.424018581092156, -2.826417938864877 ] } },
{ "type": "Feature", "properties": { "nhs_trust_name": "LANCASHIRE & SOUTH CUMBRIA NHS FOUNDATION TRUST", "nhs_trust_code": "RW5", "status": "open" }, "geometry": { "type": "Point", "coordinates": [ 53.718645540566186, -2.641020023726118 ] } },
{ "type": "Feature", "properties": { "nhs_trust_name": "PENNINE ACUTE HOSPITALS NHS TRUST", "nhs_trust_code": "RW6", "status": "open" }, "geometry": { "type": "Point", "coordinates": [ 53.517882347857395, -2.229501613961681 ] } },
{ "type": "Feature", "properties": { "nhs_trust_name": "HULL UNIVERSITY TEACHING HOSPITALS NHS TRUST", "nhs_trust_code": "RWA", "status": "open" }, "geometry": { "type": "Point", "coordinates": [ 53.743804621969367, -0.355011017378876 ] } },
{ "type": "Feature", "properties": { "nhs_trust_name": "UNITED LINCOLNSHIRE HOSPITALS NHS TRUST", "nhs_trust_code": "RWD", "status": "open" }, "geometry": { "type": "Point", "coordinates": [ 53.233575394697951, -0.519635157901581 ] } },
{ "type": "Feature", "properties": { "nhs_trust_name": "UNIVERSITY HOSPITALS OF LEICESTER NHS TRUST", "nhs_trust_code": "RWE", "status": "open" }, "geometry": { "type": "Point", "coordinates": [ 52.62678214135957, -1.135960797013968 ] } },
{ "type": "Feature", "properties": { "nhs_trust_name": "MAIDSTONE AND TUNBRIDGE WELLS NHS TRUST", "nhs_trust_code": "RWF", "status": "open" }, "geometry": { "type": "Point", "coordinates": [ 51.274469789075219, 0.485349267216015 ] } },
{ "type": "Feature", "properties": { "nhs_trust_name": "WEST HERTFORDSHIRE HOSPITALS NHS TRUST", "nhs_trust_code": "RWG", "status": "open" }, "geometry": { "type": "Point", "coordinates": [ 51.648920930090064, -0.404187486399486 ] } },
{ "type": "Feature", "properties": { "nhs_trust_name": "EAST AND NORTH HERTFORDSHIRE NHS TRUST", "nhs_trust_code": "RWH", "status": "open" }, "geometry": { "type": "Point", "coordinates": [ 51.924610643148114, -0.212726075946618 ] } },
{ "type": "Feature", "properties": { "nhs_trust_name": "STOCKPORT NHS FOUNDATION TRUST", "nhs_trust_code": "RWJ", "status": "open" }, "geometry": { "type": "Point", "coordinates": [ 53.383777898951195, -2.132019831109183 ] } },
{ "type": "Feature", "properties": { "nhs_trust_name": "EAST LONDON NHS FOUNDATION TRUST", "nhs_trust_code": "RWK", "status": "open" }, "geometry": { "type": "Point", "coordinates": [ 51.513504258167217, -0.072287220967094 ] } },
{ "type": "Feature", "properties": { "nhs_trust_name": "WORCESTERSHIRE ACUTE HOSPITALS NHS TRUST", "nhs_trust_code": "RWP", "status": "open" }, "geometry": { "type": "Point", "coordinates": [ 52.192054289997401, -2.18406182172597 ] } },
{ "type": "Feature", "properties": { "nhs_trust_name": "HERTFORDSHIRE PARTNERSHIP UNIVERSITY NHS FOUNDATION TRUST", "nhs_trust_code": "RWR", "status": "open" }, "geometry": { "type": "Point", "coordinates": [ 51.766980100122446, -0.216644766659352 ] } },
{ "type": "Feature", "properties": { "nhs_trust_name": "DEVON PARTNERSHIP NHS TRUST", "nhs_trust_code": "RWV", "status": "open" }, "geometry": { "type": "Point", "coordinates": [ 50.715472091875014, -3.506223631893957 ] } },
{ "type": "Feature", "properties": { "nhs_trust_name": "WARRINGTON AND HALTON TEACHING HOSPITALS NHS FOUNDATION TRUST", "nhs_trust_code": "RWW", "status": "open" }, "geometry": { "type": "Point", "coordinates": [ 53.393803462424614, -2.609226447709136 ] } },
{ "type": "Feature", "properties": { "nhs_trust_name": "BERKSHIRE HEALTHCARE NHS FOUNDATION TRUST", "nhs_trust_code": "RWX", "status": "open" }, "geometry": { "type": "Point", "coordinates": [ 51.416853694420091, -0.754692982037394 ] } },
{ "type": "Feature", "properties": { "nhs_trust_name": "CALDERDALE AND HUDDERSFIELD NHS FOUNDATION TRUST", "nhs_trust_code": "RWY", "status": "open" }, "geometry": { "type": "Point", "coordinates": [ 53.655474271105248, -1.816338105805254 ] } },
{ "type": "Feature", "properties": { "nhs_trust_name": "NOTTINGHAM UNIVERSITY HOSPITALS NHS TRUST", "nhs_trust_code": "RX1", "status": "open" }, "geometry": { "type": "Point", "coordinates": [ 52.943444586093172, -1.185424611898085 ] } },
{ "type": "Feature", "properties": { "nhs_trust_name": "SUSSEX PARTNERSHIP NHS FOUNDATION TRUST", "nhs_trust_code": "RX2", "status": "open" }, "geometry": { "type": "Point", "coordinates": [ 50.841210045638363, -0.411161749198948 ] } },
{ "type": "Feature", "properties": { "nhs_trust_name": "TEES, ESK AND WEAR VALLEYS NHS FOUNDATION TRUST", "nhs_trust_code": "RX3", "status": "open" }, "geometry": { "type": "Point", "coordinates": [ 54.543283874538524, -1.590872555752742 ] } },
{ "type": "Feature", "properties": { "nhs_trust_name": "CUMBRIA, NORTHUMBERLAND, TYNE AND WEAR NHS FOUNDATION TRUST", "nhs_trust_code": "RX4", "status": "open" }, "geometry": { "type": "Point", "coordinates": [ 55.006487700014354, -1.633099616368056 ] } },
{ "type": "Feature", "properties": { "nhs_trust_name": "NORTH EAST AMBULANCE SERVICE NHS FOUNDATION TRUST", "nhs_trust_code": "RX6", "status": "open" }, "geometry": { "type": "Point", "coordinates": [ 54.968861538324063, -1.711076232053954 ] } },
{ "type": "Feature", "properties": { "nhs_trust_name": "NORTH WEST AMBULANCE SERVICE NHS TRUST", "nhs_trust_code": "RX7", "status": "open" }, "geometry": { "type": "Point", "coordinates": [ 53.579004676585761, -2.475805195129626 ] } },
{ "type": "Feature", "properties": { "nhs_trust_name": "YORKSHIRE AMBULANCE SERVICE NHS TRUST", "nhs_trust_code": "RX8", "status": "open" }, "geometry": { "type": "Point", "coordinates": [ 53.708510718615969, -1.517819456004171 ] } },
{ "type": "Feature", "properties": { "nhs_trust_name": "EAST MIDLANDS AMBULANCE SERVICE NHS TRUST", "nhs_trust_code": "RX9", "status": "open" }, "geometry": { "type": "Point", "coordinates": [ 52.981517946011351, -1.238079570038644 ] } },
{ "type": "Feature", "properties": { "nhs_trust_name": "CHESHIRE AND WIRRAL PARTNERSHIP NHS FOUNDATION TRUST", "nhs_trust_code": "RXA", "status": "open" }, "geometry": { "type": "Point", "coordinates": [ 53.211672679478468, -2.899095620364527 ] } },
{ "type": "Feature", "properties": { "nhs_trust_name": "EAST SUSSEX HEALTHCARE NHS TRUST", "nhs_trust_code": "RXC", "status": "open" }, "geometry": { "type": "Point", "coordinates": [ 50.887694214743291, 0.561948727887206 ] } },
{ "type": "Feature", "properties": { "nhs_trust_name": "ROTHERHAM DONCASTER AND SOUTH HUMBER NHS FOUNDATION TRUST", "nhs_trust_code": "RXE", "status": "open" }, "geometry": { "type": "Point", "coordinates": [ 53.494803298145541, -1.145975861174322 ] } },
{ "type": "Feature", "properties": { "nhs_trust_name": "MID YORKSHIRE HOSPITALS NHS TRUST", "nhs_trust_code": "RXF", "status": "open" }, "geometry": { "type": "Point", "coordinates": [ 53.692586733739375, -1.487947793436922 ] } },
{ "type": "Feature", "properties": { "nhs_trust_name": "SOUTH WEST YORKSHIRE PARTNERSHIP NHS FOUNDATION TRUST", "nhs_trust_code": "RXG", "status": "open" }, "geometry": { "type": "Point", "coordinates": [ 53.698646130945967, -1.492045946693823 ] } },
{ "type": "Feature", "properties": { "nhs_trust_name": "BRIGHTON AND SUSSEX UNIVERSITY HOSPITALS NHS TRUST", "nhs_trust_code": "RXH", "status": "open" }, "geometry": { "type": "Point", "coordinates": [ 50.819442179658033, -0.118197160906895 ] } },
{ "type": "Feature", "properties": { "nhs_trust_name": "SANDWELL AND WEST BIRMINGHAM HOSPITALS NHS TRUST", "nhs_trust_code": "RXK", "status": "open" }, "geometry": { "type": "Point", "coordinates": [ 52.487621449521711, -1.930276627077364 ] } },
{ "type": "Feature", "properties": { "nhs_trust_name": "BLACKPOOL TEACHING HOSPITALS NHS FOUNDATION TRUST", "nhs_trust_code": "RXL", "status": "open" }, "geometry": { "type": "Point", "coordinates": [ 53.820599286112646, -3.012905764797525 ] } },
{ "type": "Feature", "properties": { "nhs_trust_name": "DERBYSHIRE HEALTHCARE NHS FOUNDATION TRUST", "nhs_trust_code": "RXM", "status": "open" }, "geometry": { "type": "Point", "coordinates": [ 52.918317559601995, -1.512782541467295 ] } },
{ "type": "Feature", "properties": { "nhs_trust_name": "LANCASHIRE TEACHING HOSPITALS NHS FOUNDATION TRUST", "nhs_trust_code": "RXN", "status": "open" }, "geometry": { "type": "Point", "coordinates": [ 53.79120425, -2.707104178532942 ] } },
{ "type": "Feature", "properties": { "nhs_trust_name": "COUNTY DURHAM AND DARLINGTON NHS FOUNDATION TRUST", "nhs_trust_code": "RXP", "status": "open" }, "geometry": { "type": "Point", "coordinates": [ 54.530505301628097, -1.56384995432923 ] } },
{ "type": "Feature", "properties": { "nhs_trust_name": "BUCKINGHAMSHIRE HEALTHCARE NHS TRUST", "nhs_trust_code": "RXQ", "status": "open" }, "geometry": { "type": "Point", "coordinates": [ 51.663001634556821, -0.621429536294259 ] } },
{ "type": "Feature", "properties": { "nhs_trust_name": "EAST LANCASHIRE HOSPITALS NHS TRUST", "nhs_trust_code": "RXR", "status": "open" }, "geometry": { "type": "Point", "coordinates": [ 53.736067320209131, -2.462521784985801 ] } },
{ "type": "Feature", "properties": { "nhs_trust_name": "BIRMINGHAM AND SOLIHULL MENTAL HEALTH NHS FOUNDATION TRUST", "nhs_trust_code": "RXT", "status": "open" }, "geometry": { "type": "Point", "coordinates": [ 52.484169150639431, -1.917289628581034 ] } },
{ "type": "Feature", "properties": { "nhs_trust_name": "GREATER MANCHESTER MENTAL HEALTH NHS FOUNDATION TRUST", "nhs_trust_code": "RXV", "status": "open" }, "geometry": { "type": "Point", "coordinates": [ 53.533562117879605, -2.295715745797 ] } },
{ "type": "Feature", "properties": { "nhs_trust_name": "THE SHREWSBURY AND TELFORD HOSPITAL NHS TRUST", "nhs_trust_code": "RXW", "status": "open" }, "geometry": { "type": "Point", "coordinates": [ 52.707892323705266, -2.79484142282726 ] } },
{ "type": "Feature", "properties": { "nhs_trust_name": "SURREY AND BORDERS PARTNERSHIP NHS FOUNDATION TRUST", "nhs_trust_code": "RXX", "status": "open" }, "geometry": { "type": "Point", "coordinates": [ 51.297591243675193, -0.335628752039862 ] } },
{ "type": "Feature", "properties": { "nhs_trust_name": "KENT AND MEDWAY NHS AND SOCIAL CARE PARTNERSHIP TRUST", "nhs_trust_code": "RXY", "status": "open" }, "geometry": { "type": "Point", "coordinates": [ 51.2725763, 0.4866078 ] } },
{ "type": "Feature", "properties": { "nhs_trust_name": "BRIDGEWATER COMMUNITY HEALTHCARE NHS FOUNDATION TRUST", "nhs_trust_code": "RY2", "status": "open" }, "geometry": { "type": "Point", "coordinates": [ 53.417249794508656, -2.627176117931407 ] } },
{ "type": "Feature", "properties": { "nhs_trust_name": "NORFOLK COMMUNITY HEALTH AND CARE NHS TRUST", "nhs_trust_code": "RY3", "status": "open" }, "geometry": { "type": "Point", "coordinates": [ 52.63440685, 1.262869172427919 ] } },
{ "type": "Feature", "properties": { "nhs_trust_name": "HERTFORDSHIRE COMMUNITY NHS TRUST", "nhs_trust_code": "RY4", "status": "open" }, "geometry": { "type": "Point", "coordinates": [ 51.802162248945692, -0.194258776761877 ] } },
{ "type": "Feature", "properties": { "nhs_trust_name": "LINCOLNSHIRE COMMUNITY HEALTH SERVICES NHS TRUST", "nhs_trust_code": "RY5", "status": "open" }, "geometry": { "type": "Point", "coordinates": [ 53.226466619528061, -0.524149724062038 ] } },
{ "type": "Feature", "properties": { "nhs_trust_name": "LEEDS COMMUNITY HEALTHCARE NHS TRUST", "nhs_trust_code": "RY6", "status": "open" }, "geometry": { "type": "Point", "coordinates": [ 53.816225121427053, -1.566954083718922 ] } },
{ "type": "Feature", "properties": { "nhs_trust_name": "WIRRAL COMMUNITY HEALTH AND CARE NHS FOUNDATION TRUST", "nhs_trust_code": "RY7", "status": "open" }, "geometry": { "type": "Point", "coordinates": [ 53.380028891011385, -3.026530582362446 ] } },
{ "type": "Feature", "properties": { "nhs_trust_name": "DERBYSHIRE COMMUNITY HEALTH SERVICES NHS FOUNDATION TRUST", "nhs_trust_code": "RY8", "status": "open" }, "geometry": { "type": "Point", "coordinates": [ 53.239669924166741, -1.479476588504203 ] } },
{ "type": "Feature", "properties": { "nhs_trust_name": "HOUNSLOW AND RICHMOND COMMUNITY HEALTHCARE NHS TRUST", "nhs_trust_code": "RY9", "status": "open" }, "geometry": { "type": "Point", "coordinates": [ 51.427464483765256, -0.326213611545907 ] } },
{ "type": "Feature", "properties": { "nhs_trust_name": "WEST MIDLANDS AMBULANCE SERVICE UNIVERSITY NHS FOUNDATION TRUST", "nhs_trust_code": "RYA", "status": "open" }, "geometry": { "type": "Point", "coordinates": [ 52.485646678802205, -2.119045296515896 ] } },
{ "type": "Feature", "properties": { "nhs_trust_name": "EAST OF ENGLAND AMBULANCE SERVICE NHS TRUST", "nhs_trust_code": "RYC", "status": "open" }, "geometry": { "type": "Point", "coordinates": [ 52.076590912248179, 0.014220882805416 ] } },
{ "type": "Feature", "properties": { "nhs_trust_name": "SOUTH EAST COAST AMBULANCE SERVICE NHS FOUNDATION TRUST", "nhs_trust_code": "RYD", "status": "open" }, "geometry": { "type": "Point", "coordinates": [ 51.132693909482526, -0.168715285258139 ] } },
{ "type": "Feature", "properties": { "nhs_trust_name": "SOUTH CENTRAL AMBULANCE SERVICE NHS FOUNDATION TRUST", "nhs_trust_code": "RYE", "status": "open" }, "geometry": { "type": "Point", "coordinates": [ 51.891768312730768, -1.149499892408495 ] } },
{ "type": "Feature", "properties": { "nhs_trust_name": "SOUTH WESTERN AMBULANCE SERVICE NHS FOUNDATION TRUST", "nhs_trust_code": "RYF", "status": "open" }, "geometry": { "type": "Point", "coordinates": [ 50.720398125, -3.464708268749999 ] } },
{ "type": "Feature", "properties": { "nhs_trust_name": "COVENTRY AND WARWICKSHIRE PARTNERSHIP NHS TRUST", "nhs_trust_code": "RYG", "status": "open" }, "geometry": { "type": "Point", "coordinates": [ 52.457120185925319, -1.486526282536075 ] } },
{ "type": "Feature", "properties": { "nhs_trust_name": "IMPERIAL COLLEGE HEALTHCARE NHS TRUST", "nhs_trust_code": "RYJ", "status": "open" }, "geometry": { "type": "Point", "coordinates": [ 51.5174679, -0.1753826 ] } },
{ "type": "Feature", "properties": { "nhs_trust_name": "DUDLEY INTEGRATED HEALTH AND CARE NHS TRUST", "nhs_trust_code": "RYK", "status": "open" }, "geometry": { "type": "Point", "coordinates": [ 52.481755219827321, -2.117856793652437 ] } },
{ "type": "Feature", "properties": { "nhs_trust_name": "WESTERN SUSSEX HOSPITALS NHS FOUNDATION TRUST", "nhs_trust_code": "RYR", "status": "open" }, "geometry": { "type": "Point", "coordinates": [ 50.816661038356052, -0.364132528515576 ] } },
{ "type": "Feature", "properties": { "nhs_trust_name": "PUBLIC HEALTH WALES NHS TRUST", "nhs_trust_code": "RYT", "status": "open" }, "geometry": { "type": "Point", "coordinates": [ 51.47668325, -3.1691347 ] } },
{ "type": "Feature", "properties": { "nhs_trust_name": "CAMBRIDGESHIRE COMMUNITY SERVICES NHS TRUST", "nhs_trust_code": "RYV", "status": "open" }, "geometry": { "type": "Point", "coordinates": [ 52.321066342137065, -0.06373719141611 ] } },
{ "type": "Feature", "properties": { "nhs_trust_name": "BIRMINGHAM COMMUNITY HEALTHCARE NHS FOUNDATION TRUST", "nhs_trust_code": "RYW", "status": "open" }, "geometry": { "type": "Point", "coordinates": [ 52.487568183028138, -1.88615543238898 ] } },
{ "type": "Feature", "properties": { "nhs_trust_name": "CENTRAL LONDON COMMUNITY HEALTHCARE NHS TRUST", "nhs_trust_code": "RYX", "status": "open" }, "geometry": { "type": "Point", "coordinates": [ 51.5228381243478, -0.15153914205775 ] } },
{ "type": "Feature", "properties": { "nhs_trust_name": "KENT COMMUNITY HEALTH NHS FOUNDATION TRUST", "nhs_trust_code": "RYY", "status": "open" }, "geometry": { "type": "Point", "coordinates": [ 51.278405061957663, 0.478723409162304 ] } }
]
}
